{
  "countries": [
    {
      "name": "Brazil",
      "long": -51.92528,
      "lat": -14.235004
    },
    {
      "name": "China",
      "long": 104.195397,
      "lat": 35.86166
    },
    {
      "name": "France",
      "long": 2.213749,
      "lat": 46.227638
    },
    {
      "name": "Germany",
      "long": 10.451526,
      "lat": 51.165691
    },
    {
      "name": "India",
      "long": 78.96288,
      "lat": 20.593684
    },
    {
      "name": "Italy",
      "long": 12.56738,
      "lat": 41.87194
    },
    {
      "name": "Japan",
      "long": 138.252924,
      "lat": 36.204824
    },
    {
      "name": "Russia",
      "long": 105.318756,
      "lat": 61.52401
    },
    {
      "name": "Spain",
      "long": -3.74922,
      "lat": 40.463667
    },
    {
      "name": "United Kingdom",
      "long": -3.435973,
      "lat": 55.378051
    },
    {
      "name": "United States",
      "long": -95.712891,
      "lat": 37.09024
    }
  ]
}